ID,地域,緯度,経度,ジャンル1,サブジャンル1,ジャンル2,サブジャンル2,ジャンル3,サブジャンル3,名称,概略,郵便番号,住所,電話番号,Fax番号,E-mail,開館時間,休館日,料金,備考,リンク
2048,金沢市,36.557593,136.660953,福祉・健康,AED,,,,,鈴木大拙館（AED）,１Ｆ　受付後方棚,920-0964,金沢市本多町3-4-20,,,,,,,,
2049,金沢市,36.561126,136.658463,福祉・健康,AED,,,,,金沢21世紀美術館（AED）,１Ｆ　救護室前【広坂口（北口）側】,920-0962,金沢市広坂1-2-1,,,,,,,,
2050,金沢市,36.569249,136.663557,福祉・健康,AED,,,,,寺島蔵人邸跡（AED）,１Ｆ　入口付近客用トイレ,920-0912,金沢市大手町10-3,,,,,,,,
2051,金沢市,36.558985,136.658555,福祉・健康,AED,,,,,金沢歌劇座（AED）,１Ｆ　本館ロビー左側壁,920-0993,金沢市下本多町6-27,,,,,,,,
2052,金沢市,36.55877,136.660558,福祉・健康,AED,,,,,中村記念美術館（AED）,１Ｆ　階段横,920-0964,金沢市本多町3-2-29,,,,,,,,
2053,金沢市,36.566706,136.65282,福祉・健康,AED,,,,,金沢市文化ホール（AED）,展示棟１Ｆ　自動ドアを入って左側の階段下,920-0864,金沢市高岡町15-1,,,,,,,,
2054,金沢市,36.558145,136.668057,福祉・健康,AED,,,,,金沢くらしの博物館（AED）,１Ｆ　玄関入り口付近,920-0938,金沢市飛梅3-31,,,,,,,,
2055,金沢市,36.567925,136.639827,福祉・健康,AED,,,,,金沢市民芸術村（AED）,事務所棟１Ｆ　風除室正面壁,920-0046,金沢市大和町1-1,,,,,,,,
2056,金沢市,36.573757,136.665987,福祉・健康,AED,,,,,安江金箔工芸館（AED）,"１Ｆ　受付カウンター脇
事務室扉横",920-0831,金沢市東山1-3-10,,,,,,,,
2057,金沢市,36.559075,136.657868,福祉・健康,AED,,,,,金沢ふるさと偉人館（AED）,１Ｆ　エレベータ前、右側壁,920-0993,金沢市下本多町6-18-4,,,,,,,,
2058,金沢市,36.571444,136.663096,福祉・健康,AED,,,,,泉鏡花記念館（AED）,１Ｆ　入り口自動ドア付近,920-0910,金沢市下新町2-3,,,,,,,,
2059,金沢市,36.485932,136.75746,福祉・健康,AED,,,,,金沢湯涌夢二館（AED）,１Ｆ　階段下コインロッカー横,920-1122,金沢市湯涌イ144-1,,,,,,,,
2060,金沢市,36.571283,136.662707,福祉・健康,AED,,,,,金沢蓄音器館（AED）,１Ｆ　事務室前,920-0902,金沢市尾張町2-11-21,,,,,,,,
2061,金沢市,36.562384,136.650883,福祉・健康,AED,,,,,前田土佐守家資料館（AED）,１Ｆ　玄関ホール　自販機横,920-0981,金沢市片町2-10-17,,,,,,,,
2062,金沢市,36.559025,136.648203,福祉・健康,AED,,,,,室生犀星記念館（AED）,１Ｆ　入口付近,921-8023,金沢市千日町3-22,,,,,,,,
2063,金沢市,36.570902,136.667162,福祉・健康,AED,,,,,徳田秋聲記念館（AED）,１Ｆ　女子トイレ入口右側,920-0831,金沢市東山1-19-1,,,,,,,,
2064,金沢市,36.56267,136.65035,福祉・健康,AED,,,,,金沢市老舗記念館（AED）,１Ｆ　通路奥トイレ前,920-0865,金沢市長町2-2-45,,,,,,,,
2065,金沢市,36.57363,136.674915,福祉・健康,AED,,,,,金沢卯辰山工芸工房（AED）,本館棟１Ｆ　展示室横通路,920-0832,金沢市卯辰町ト10,,,,,,,,
2066,金沢市,36.4943,136.749563,福祉・健康,AED,,,,,金沢湯涌創作の森（AED）,宿泊・受付棟１Ｆ　事務室前,920-1135,金沢市北袋町ヱ36,,,,,,,,
2067,金沢市,36.561567,136.658122,福祉・健康,AED,,,,,金沢能楽美術館（AED）,１Ｆ　男子トイレ前,920-0962,金沢市広坂1-2-25,,,,,,,,
2068,金沢市,36.57634,136.649433,福祉・健康,AED,,,,,金沢市アートホール（AED）,ポルテ金沢　６Ｆ　ホワイエ　上手側ベンチ前,920-0853,金沢市本町2-15-1,,,,,,,,
2069,金沢市,36.570819,136.663707,福祉・健康,AED,,,,,金沢文芸館（AED）,１Ｆ　正面入り口より右側奥,920-0902,金沢市尾張町1-7-10,,,,,,,,
2070,金沢市,36.557375,136.59143,福祉・健康,AED,,,,,埋蔵文化財センター（AED）,１Ｆ　玄関ホール右側出入り口寄りの壁,920-0374,金沢市上安原南60,,,,,,,,
2071,金沢市,36.556019,136.605232,福祉・健康,AED,,,,,埋蔵文化財収蔵庫（AED）,１Ｆ　事務所内左側壁,921-8062,金沢市新保本5-48,,,,,,,,
2072,金沢市,36.490611,136.756638,福祉・健康,AED,,,,,金沢湯涌江戸村（AED）,旧山川家住宅１Ｆ　通庭(入口土間),920-1122,金沢市湯涌荒屋町35-1,,,,,,,,
2073,金沢市,36.572357,136.66584,福祉・健康,AED,,,,,ひがし茶屋休憩館（AED）,１Ｆ　事務室奥,920-0831,金沢市東山1-5-14,,,,,,,,
2074,金沢市,36.564453,136.649566,福祉・健康,AED,,,,,長町武家屋敷休憩館（AED）,１Ｆ　入口奥,920-0865,金沢市長町2-4-36,,,,,,,,
2075,金沢市,36.556662,136.647334,福祉・健康,AED,,,,,西茶屋資料館（AED）,１Ｆ　事務室手前,921-8031,金沢市野町2-25-18,,,,,,,,
2076,金沢市,36.571648,136.654875,福祉・健康,AED,,,,,ＩＴビジネスプラザ武蔵（AED）,４Ｆ　ロビー,920-0855,金沢市武蔵町14-31,,,,,,,,
2077,金沢市,36.566717,136.574515,福祉・健康,AED,,,,,金沢市異業種研修会館（AED）,１Ｆ　ロビー,920-0377,金沢市打木町東1400,,,,,,,,
2078,金沢市,36.62846,136.620258,福祉・健康,AED,,,,,金沢市ものづくり会館（AED）,１Ｆ　事務室,920-0226,金沢市粟崎町4-80-1,,,,,,,,
2079,金沢市,36.490559,136.754519,福祉・健康,AED,,,,,金沢湯涌みどりの里（AED）,１Ｆ　事務室内,920-1122,金沢市湯涌荒屋町47,,,,,,,,
2080,金沢市,36.527778,136.768273,福祉・健康,AED,,,,,医王の里オートキャンプ場（AED）,１Ｆ　総合案内所,920-1111,金沢市大菱池町ニ34,,,,,,,,
2081,金沢市,36.569699,136.656077,福祉・健康,AED,,,,,金沢市西町教育研修館（AED）,１Ｆ　受付カウンター後ろ,920-0913,金沢市西町三番丁16,,,,,,,,
2082,金沢市,36.563153,136.650153,福祉・健康,AED,,,,,中央公民館長町館（AED）,１Ｆ　エレベーター前,920-0865,金沢市長町2-2-43,,,,,,,,
2083,金沢市,36.574726,136.659549,福祉・健康,AED,,,,,中央公民館彦三館（AED）,１Ｆ　事務局前,920-0901,金沢市彦三町1-15-5,,,,,,,,
2084,金沢市,36.523744,136.745981,福祉・健康,AED,,,,,キゴ山ふれあいの研修センター　青少年交流課（AED）,１Ｆ　エントランス右側壁,920-1107,金沢市小豆沢町ｦ4,,,,,,,,
2085,金沢市,36.569638,136.651749,福祉・健康,AED,,,,,玉川図書館（AED）,１Ｆ　貸出カウンター横,920-0863,金沢市玉川町2-20,,,,,,,,
2086,金沢市,36.569985,136.650752,福祉・健康,AED,,,,,玉川こども図書館（AED）,１Ｆ　貸出カウンター内,920-0863,金沢市玉川町2-2,,,,,,,,
2087,金沢市,36.544094,136.649277,福祉・健康,AED,,,,,泉野図書館（AED）,１Ｆ　貸出カウンター内,921-8034,金沢市泉野町4-22-22,,,,,,,,
2088,金沢市,36.594339,136.604294,福祉・健康,AED,,,,,金沢海みらい図書館（AED）,１Ｆ　総合カウンター内,920-0341,金沢市寺中町イ1-1,,,,,,,,
2089,金沢市,36.538157,136.642408,福祉・健康,AED,,,,,教育プラザ富樫(2号館)（AED）,２Ｆ　総合事務室出入口そば,921-8171,金沢市富樫3-10-1,,,,,,,,
2090,金沢市,36.57708,136.651956,福祉・健康,AED,,,,,教育プラザ此花（AED）,１Ｆ　玄関入って右側,920-0852,金沢市此花町2-7,,,,,,,,
2091,金沢市,36.569561,136.653736,福祉・健康,AED,,,,,金沢市松ヶ枝福祉館（AED）,１Ｆ　玄関ホール左側,920-0864,金沢市高岡町7-25,,,,,,,,
2092,金沢市,36.576361,136.651873,福祉・健康,AED,,,,,金沢福祉用具情報プラザ（AED）,１Ｆ　エレベーター前,920-0853,金沢市本町1-10-1,,,,,,,,
2093,金沢市,36.56763,136.689192,福祉・健康,AED,,,,,千寿閣（AED）,１Ｆ　玄関ロビー右壁側,920-0822,金沢市東長江町辺2-1,,,,,,,,
2094,金沢市,36.525277,136.677175,福祉・健康,AED,,,,,万寿苑（AED）,１Ｆ　ホール右側壁,921-8046,金沢市大桑町ヤ1-4,,,,,,,,
2095,金沢市,36.607993,136.59951,福祉・健康,AED,,,,,松寿荘（AED）,１Ｆ　玄関ロビー,920-0338,金沢市金石北3-3-33,,,,,,,,
2096,金沢市,36.509803,136.629528,福祉・健康,AED,,,,,鶴寿園（AED）,１Ｆ　玄関ロビー左壁側,921-8144,金沢市額谷町ヌ1,,,,,,,,
2097,金沢市,36.544406,136.662404,福祉・健康,AED,,,,,十一屋生きがい交流館（AED）,１Ｆ　事務室内,921-8106,金沢市十一屋町4-34,,,,,,,,
2098,金沢市,36.571996,136.65003,福祉・健康,AED,,,,,玉川苑（AED）,１Ｆ　カウンター内,920-0862,金沢市芳斉2-3-28,,,,,,,,
2099,金沢市,36.580934,136.637017,福祉・健康,AED,,,,,障害者高齢者体育館（AED）,１Ｆ　事務所内,920-0025,金沢市駅西本町2-3-27,,,,,,,,
2100,金沢市,36.568877,136.661171,福祉・健康,AED,,,,,金沢総合健康センター（AED）,１Ｆ　夜間救急診療所内,920-0912,金沢市大手町3-23,,,,,,,,
2101,金沢市,36.568877,136.661171,福祉・健康,AED,,,,,金沢健康プラザ大手町（AED）,１Ｆ　健康スタジオ２横廊下,920-0912,金沢市大手町3-23,,,,,,,,
2102,金沢市,36.543624,136.649516,福祉・健康,AED,,,,,泉野福祉健康センター（AED）,３Ｆ　カウンター窓口前,921-8034,金沢市泉野町6-15-5,,,,,,,,
2103,金沢市,36.581718,136.66706,福祉・健康,AED,,,,,元町福祉健康センター（AED）,１Ｆ　カウンター窓口前,920-0842,金沢市元町1-12-12,,,,,,,,
2104,金沢市,36.589882,136.63545,福祉・健康,AED,,,,,金沢市保健所（AED）,１Ｆ　ロビー右側壁,920-0024,金沢市西念3-4-25,,,,,,,,
2105,金沢市,36.537109,136.642021,福祉・健康,AED,,,,,教育プラザ富樫(5号館)　児童相談所（AED）,１Ｆ　玄関ロビー,921-8178,金沢市寺地1-15-1,,,,,,,,
2106,金沢市,36.536898,136.642204,福祉・健康,AED,,,,,教育プラザ富樫(6号館)　児童相談所一時保護所（AED）,１Ｆ　事務所内,921-8178,金沢市寺地1-15-1,,,,,,,,
2107,金沢市,36.539911,136.650051,福祉・健康,AED,,,,,総合体育館（AED）,２Ｆ　受付窓口の付近,921-8116,金沢市泉野出町3-8-1,,,,,,,,
2108,金沢市,36.566611,136.645581,福祉・健康,AED,,,,,中央市民体育館（AED）,１Ｆ　受付窓口の付近,920-0865,金沢市長町3-3-3,,,,,,,,
2109,金沢市,36.587541,136.669875,福祉・健康,AED,,,,,城北市民体育館（AED）,１Ｆ　競技場出入口付近,920-0804,金沢市鳴和2-10-44,,,,,,,,
2110,金沢市,36.524789,136.691267,福祉・健康,AED,,,,,城東市民体育館（AED）,１Ｆ　受付窓口の付近,920-0955,金沢市土清水2-346,,,,,,,,
2111,金沢市,36.544314,136.656708,福祉・健康,AED,,,,,城南市民体育館（AED）,１Ｆ　競技場出入口付近,921-8111,金沢市若草町1-60,,,,,,,,
2112,金沢市,36.598011,136.603013,福祉・健康,AED,,,,,城西市民体育館（AED）,１Ｆ　競技場出入口付近,920-0341,金沢市寺中町へ60,,,,,,,,
2113,金沢市,36.615877,136.6925,福祉・健康,AED,,,,,森本市民体育館（AED）,１Ｆ　競技場出入口付近,920-3115,金沢市弥勒町ヨ50-1,,,,,,,,
2114,金沢市,36.61484,136.639885,福祉・健康,AED,,,,,浅野川市民体育館（AED）,１Ｆ　受付窓口の付近,920-0213,金沢市大河端西80-1,,,,,,,,
2115,金沢市,36.562935,136.619833,福祉・健康,AED,,,,,西部市民体育会館(体育館)（AED）,１Ｆ　プール前,921-8016,金沢市東力町ハ250,,,,,,,,
2116,金沢市,36.509409,136.629936,福祉・健康,AED,,,,,額谷ふれあい体育館（AED）,１Ｆ　受付窓口の付近,921-8144,金沢市額谷町ヌ16,,,,,,,,
2117,金沢市,36.539242,136.643662,福祉・健康,AED,,,,,総合プール（AED）,１Ｆ　入口付近,921-8171,金沢市富樫3-8-30,,,,,,,,
2118,金沢市,36.594246,136.671206,福祉・健康,AED,,,,,東金沢スポーツ広場（AED）,１Ｆ　受付窓口の付近,920-0802,金沢市三池町240-1,,,,,,,,
2119,金沢市,36.554784,136.611812,福祉・健康,AED,,,,,西金沢テニスコート（AED）,１Ｆ　クラブハウスロビー,921-8054,金沢市西金沢3-684,,,,,,,,
2120,金沢市,36.589735,136.607599,福祉・健康,AED,,,,,大徳テニスコート（AED）,１Ｆ　受付窓口の付近,920-0352,金沢市観音堂町ト1-1,,,,,,,,
2121,金沢市,36.601782,136.656581,福祉・健康,AED,,,,,城北市民テニスコート（AED）,１Ｆ　受付窓口の付近,920-0011,金沢市松寺町酉90-1,,,,,,,,
2122,金沢市,36.54101,136.643212,福祉・健康,AED,,,,,陸上競技場（AED）,１Ｆ　管理棟競技場出入口,921-8036,金沢市弥生3-5-1,,,,,,,,
2123,金沢市,36.586615,136.578966,福祉・健康,AED,,,,,専光寺ソフトボール場（AED）,１Ｆ　管理事務室内,920-0356,金沢市専光寺町レ3-5,,,,,,,,
2124,金沢市,36.570372,136.574645,福祉・健康,AED,,,,,安原スポーツ広場（AED）,１Ｆ　管理事務室前,920-0371,金沢市下安原町東1127,,,,,,,,
2125,金沢市,36.563213,136.619252,福祉・健康,AED,,,,,西部市民憩いの家（AED）,１Ｆ　受付窓口の付近,921-8016,金沢市東力町ハ256,,,,,,,,
2126,金沢市,36.527293,136.751669,福祉・健康,AED,,,,,医王山スキー場（AED）,１Ｆ　ファミリーゲレンデ事務室,920-1108,金沢市俵町テ甲21,,,,,,,,
2127,金沢市,36.546178,136.732616,福祉・健康,AED,,,,,戸室スポーツ広場（AED）,１Ｆ　管理事務室前,920-1105,金沢市戸室新保ト35,,,,,,,,
2128,金沢市,36.511141,136.687426,福祉・健康,AED,,,,,内川スポーツ広場（AED）,１Ｆ　管理事務室前,920-1337,金沢市山川町1-1,,,,,,,,
2129,金沢市,36.539002,136.64244,福祉・健康,AED,,,,,球技場（AED）,１Ｆ　本部棟内,921-8171,金沢市富樫3-8-10,,,,,,,,
2130,金沢市,36.599465,136.657927,福祉・健康,AED,,,,,金沢市民野球場（AED）,１Ｆ　メインスタンド棟管理事務室前,920-0012,金沢市磯部町二45,,,,,,,,
2131,金沢市,36.57704,136.679161,福祉・健康,AED,,,,,鳴和台市民体育会館（体育館）（AED）,１Ｆ　受付窓口の付近,920-0815,金沢市鳴和台285,,,,,,,,
2132,金沢市,36.597493,136.657841,福祉・健康,AED,,,,,市民サッカー場（AED）,１Ｆ　本部棟内,920-0012,金沢市磯部町ニ45,,,,,,,,
2133,金沢市,36.552635,136.648175,福祉・健康,AED,,,,,泉小学校（AED）,２Ｆ　職員室前廊下,921-8031,金沢市野町3-11-1,,,,,,,,
2135,金沢市,36.560983,136.642059,福祉・健康,AED,,,,,中村町小学校（AED）,"１Ｆ　体育館下足箱の
棚中",921-8022,金沢市中村町26-12,,,,,,,,
2136,金沢市,36.545327,136.660911,福祉・健康,AED,,,,,十一屋小学校（AED）,１Ｆ　職員玄関内左側壁,921-8106,金沢市十一屋町3-45,,,,,,,,
2137,金沢市,36.542714,136.654245,福祉・健康,AED,,,,,泉野小学校（AED）,１Ｆ　体育館入り口右側,921-8117,金沢市緑が丘4-64,,,,,,,,
2138,金沢市,36.555707,136.656858,福祉・健康,AED,,,,,新竪町小学校（AED）,２Ｆ　職員室前廊下,920-0995,金沢市新竪町3-25,,,,,,,,
2139,金沢市,36.550035,136.661848,福祉・健康,AED,,,,,菊川町小学校（AED）,１Ｆ　玄関内右側壁,920-0967,金沢市菊川1-2-15,,,,,,,,
2140,金沢市,36.551538,136.678696,福祉・健康,AED,,,,,小立野小学校（AED）,１Ｆ　職員室前棚の上,920-0942,金沢市小立野4-7-7,,,,,,,,
2141,金沢市,36.567316,136.667968,福祉・健康,AED,,,,,旧・材木町小学校（AED）,１Ｆ　保健室前,920-0921,金沢市材木町13-12,,,,,,,,
2143,金沢市,36.567183,136.650725,福祉・健康,AED,,,,,中央小学校（AED）,２Ｆ　職員室内,920-0865,金沢市長町1-10-35,,,,,,,,
2144,金沢市,36.572518,136.649204,福祉・健康,AED,,,,,中央小芳斎分校（AED）,２Ｆ　職員室内　入り口側,920-0862,金沢市芳斉2-3-8,,,,,,,,
2145,金沢市,36.575357,136.6421,福祉・健康,AED,,,,,長田町小学校（AED）,１Ｆ　ホール左側、保健室横,920-0043,金沢市長田1-5-40,,,,,,,,
2146,金沢市,36.576904,136.657166,福祉・健康,AED,,,,,明成小学校（AED）,"１Ｆ　東階段下　
体育館玄関入り口の左側",920-0845,金沢市瓢箪町5-48,,,,,,,,
2147,金沢市,36.588649,136.64793,福祉・健康,AED,,,,,諸江町小学校（AED）,１Ｆ　保健室前,920-0022,金沢市北安江2-25-1,,,,,,,,
2148,金沢市,36.574663,136.66549,福祉・健康,AED,,,,,馬場小学校（AED）,２Ｆ　職員室前廊下,920-0831,金沢市東山3-9-30,,,,,,,,
2149,金沢市,36.578565,136.667576,福祉・健康,AED,,,,,森山町小学校（AED）,１Ｆ　保健室前,920-0843,金沢市森山2-13-50,,,,,,,,
2150,金沢市,36.581731,136.658818,福祉・健康,AED,,,,,浅野町小学校（AED）,１Ｆ　体育館玄関入口右側,920-0848,金沢市京町35-1,,,,,,,,
2151,金沢市,36.590108,136.677683,福祉・健康,AED,,,,,小坂小学校（AED）,１Ｆ　保健室前,920-0811,金沢市小坂町中142,,,,,,,,
2152,金沢市,36.605736,136.674977,福祉・健康,AED,,,,,千坂小学校（AED）,１Ｆ　保健室前,920-0002,金沢市千木1-125,,,,,,,,
2153,金沢市,36.577568,136.692366,福祉・健康,AED,,,,,夕日寺小学校（AED）,１Ｆ　職員室内,920-0822,金沢市東長江町に17,,,,,,,,
2154,金沢市,36.623281,136.653287,福祉・健康,AED,,,,,大浦小学校（AED）,２Ｆ　職員室前廊下,920-0205,金沢市大浦町ヌ87,,,,,,,,
2155,金沢市,36.621053,136.641726,福祉・健康,AED,,,,,浅野川小学校（AED）,２Ｆ　職員室前廊下,920-0207,金沢市須崎町チ42,,,,,,,,
2156,金沢市,36.601836,136.632494,福祉・健康,AED,,,,,鞍月小学校（AED）,"２ F　体育館入口扉手前左壁面
２Ｆ　職員室入口右手角　棚上",920-0064,金沢市南新保町リ27-1,,,,,,,,
2158,金沢市,36.621217,136.624622,福祉・健康,AED,,,,,粟崎小学校（AED）,１Ｆ　保健室前廊下,920-0226,金沢市粟崎町ヘ78,,,,,,,,
2159,金沢市,36.610354,136.60336,福祉・健康,AED,,,,,大野町小学校（AED）,２Ｆ　職員室内,920-0231,金沢市大野町1-15,,,,,,,,
2160,金沢市,36.608707,136.598972,福祉・健康,AED,,,,,金石町小学校（AED）,２Ｆ　体育館北側入口前右側,920-0338,金沢市金石北4-1-1,,,,,,,,
2161,金沢市,36.591196,136.610027,福祉・健康,AED,,,,,大徳小学校（AED）,２Ｆ　職員室前右側壁,920-0348,金沢市松村6-200,,,,,,,,
2162,金沢市,36.579385,136.6225,福祉・健康,AED,,,,,戸板小学校（AED）,１Ｆ　プレイルーム窓際,920-0000,戸板第二土地区画整理事業地４７－１街区１番地,,,,,,,,
2163,金沢市,36.570126,136.590808,福祉・健康,AED,,,,,緑小学校（AED）,"１Ｆ　職員玄関から入って左側,
職員室前廊下",920-0373,金沢市みどり1-166,,,,,,,,
2164,金沢市,36.54594,136.609396,福祉・健康,AED,,,,,押野小学校（AED）,２Ｆ　職員室前廊下入口側壁,921-8064,金沢市八日市1-176,,,,,,,,
2165,金沢市,36.565682,136.619971,福祉・健康,AED,,,,,米丸小学校（AED）,１Ｆ　職員玄関棚上,921-8016,金沢市東力町ニ155,,,,,,,,
2166,金沢市,36.543585,136.633621,福祉・健康,AED,,,,,三馬小学校（AED）,２Ｆ　職員室前,921-8164,金沢市久安6-154,,,,,,,,
2167,金沢市,36.529476,136.645712,福祉・健康,AED,,,,,富樫小学校（AED）,２Ｆ　職員室前,921-8175,金沢市山科3-6-60,,,,,,,,
2168,金沢市,36.510489,136.621867,福祉・健康,AED,,,,,額小学校（AED）,２Ｆ　職員室内西側入り口,921-8146,金沢市額乙丸町イ41,,,,,,,,
2169,金沢市,36.51151,136.698041,福祉・健康,AED,,,,,犀川小学校（AED）,２Ｆ　職員室入り口横廊下,920-1302,金沢市末町2-148,,,,,,,,
2170,金沢市,36.51879,136.706379,福祉・健康,AED,,,,,東浅川小学校（AED）,１Ｆ　保健室前廊下,920-1145,金沢市浅川町イ130,,,,,,,,
2171,金沢市,36.546169,136.692984,福祉・健康,AED,,,,,田上小学校（AED）,２Ｆ　職員室前、左扉横壁,920-1151,金沢市田上町南46,,,,,,,,
2172,金沢市,36.534358,136.723683,福祉・健康,AED,,,,,旧俵小学校（AED）,１Ｆ　保健室前廊下、消火栓の上,920-1108,金沢市俵町ヘ乙22,,,,,,,,
2173,金沢市,36.622793,136.693039,福祉・健康,AED,,,,,森本小学校（AED）,１Ｆ　体育館玄関内左側,920-3116,金沢市南森本町イ111,,,,,,,,
2174,金沢市,36.632644,136.708209,福祉・健康,AED,,,,,花園小学校（AED）,１Ｆ　体育館内入口,920-0106,金沢市今町ヌ34,,,,,,,,
2175,金沢市,36.622653,136.755593,福祉・健康,AED,,,,,旧朝日小学校（AED）,１Ｆ　玄関左側来客用下足箱の上,920-0114,金沢市加賀朝日町ホ33,,,,,,,,
2176,金沢市,36.608454,136.708621,福祉・健康,AED,,,,,不動寺小学校（AED）,１Ｆ　体育館玄関内左側,920-0173,金沢市不動寺町イ33,,,,,,,,
2177,金沢市,36.595839,136.735955,福祉・健康,AED,,,,,三谷小学校（AED）,"１Ｆ　保健室前廊下  職員玄関から
ピロティへ向い左側の壁",920-0153,金沢市宮野町ニ277,,,,,,,,
2178,金沢市,36.537231,136.681246,福祉・健康,AED,,,,,南小立野小学校（AED）,２Ｆ　廊下（校長室前中央階段側）,920-0953,金沢市涌波2-5-1,,,,,,,,
2179,金沢市,36.526893,136.637924,福祉・健康,AED,,,,,伏見台小学校（AED）,１Ｆ　保健室前廊下,921-8151,金沢市窪5-335,,,,,,,,
2180,金沢市,36.522924,136.625436,福祉・健康,AED,,,,,扇台小学校（AED）,１Ｆ　体育館入口,921-8141,金沢市馬替1-34,,,,,,,,
2181,金沢市,36.597811,136.603866,福祉・健康,AED,,,,,木曳野小学校（AED）,２Ｆ　職員室前廊下,920-0341,金沢市寺中町ヘ61,,,,,,,,
2182,金沢市,36.557878,136.596713,福祉・健康,AED,,,,,三和小学校（AED）,"体育館１Ｆピロティ内の
プール側出入口脇",921-8066,金沢市矢木1-74,,,,,,,,
2183,金沢市,36.535006,136.657517,福祉・健康,AED,,,,,長坂台小学校（AED）,１Ｆ　玄関内右側,921-8112,金沢市長坂3-14-1,,,,,,,,
2184,金沢市,36.565363,136.634937,福祉・健康,AED,,,,,新神田小学校（AED）,１Ｆ　保健室前,921-8013,金沢市新神田1-10-58,,,,,,,,
2185,金沢市,36.555475,136.608368,福祉・健康,AED,,,,,西南部小学校（AED）,２Ｆ　体育館正面入り口の右側,921-8063,金沢市八日市出町304,,,,,,,,
2186,金沢市,36.545563,136.627927,福祉・健康,AED,,,,,米泉小学校（AED）,２Ｆ　職員室内（入口近く）,921-8044,金沢市米泉町4-133-2,,,,,,,,
2187,金沢市,36.502931,136.617579,福祉・健康,AED,,,,,四十万小学校（AED）,２Ｆ　体育館出入り口の右側,921-8135,金沢市四十万3-186,,,,,,,,
2188,金沢市,36.592415,136.636825,福祉・健康,AED,,,,,西小学校（AED）,２Ｆ　職員室内（入口近く）,920-0027,金沢市駅西新町3-15-1,,,,,,,,
2189,金沢市,36.566951,136.579401,福祉・健康,AED,,,,,安原小学校（AED）,１Ｆ　保健室前,920-0376,金沢市福増町北1087,,,,,,,,
2190,金沢市,36.55742,136.686323,福祉・健康,AED,,,,,杜の里小学校（AED）,１Ｆ　職員室内玄関側（ガラス張職員室）,920-1165,金沢市若松町3-282,,,,,,,,
2191,金沢市,36.555637,136.759845,福祉・健康,AED,,,,,医王山小・中学校（AED）,２Ｆ　職員室出入口横廊下,920-1102,金沢市二俣町さ21,,,,,,,,
2192,金沢市,36.491809,136.753296,福祉・健康,AED,,,,,湯涌小・芝原中学校（AED）,１Ｆ　体育館玄関内トレーニングルーム入口前,920-1122,金沢市湯涌荒屋町23,,,,,,,,
2193,金沢市,36.504466,136.676113,福祉・健康,AED,,,,,内川小・中学校（AED）,１Ｆ　職員玄関,920-1341,金沢市別所町ヰ18,,,,,,,,
2194,金沢市,36.549168,136.645262,福祉・健康,AED,,,,,泉中学校（AED）,１Ｆ　職員室内,921-8036,金沢市弥生1-26-1,,,,,,,,
2195,金沢市,36.544247,136.657636,福祉・健康,AED,,,,,野田中学校（AED）,３Ｆ　職員室前,921-8111,金沢市若草1-23,,,,,,,,
2196,金沢市,36.543675,136.674374,福祉・健康,AED,,,,,城南中学校（AED）,１Ｆ　中央玄関横職員室前廊下,920-0966,金沢市城南1-24-1,,,,,,,,
2197,金沢市,36.558062,136.668857,福祉・健康,AED,,,,,紫錦台中学校（AED）,２Ｆ　職員室前廊下,920-0938,金沢市飛梅町3-30,,,,,,,,
2198,金沢市,36.559645,136.680268,福祉・健康,AED,,,,,兼六中学校（AED）,１Ｆ　職員玄関内出入口付近,920-0924,金沢市田井町12-12,,,,,,,,
2199,金沢市,36.564375,136.664685,福祉・健康,AED,,,,,小将町中学校（AED）,３Ｆ　職員室前廊下,920-0932,金沢市小将町1-15,,,,,,,,
2200,金沢市,36.565461,136.636217,福祉・健康,AED,,,,,高岡中学校（AED）,２Ｆ　職員室内の廊下側壁,921-8013,金沢市新神田1-10-1,,,,,,,,
2201,金沢市,36.586661,136.671389,福祉・健康,AED,,,,,鳴和中学校（AED）,２Ｆ　職員・来賓玄関内右側,920-0804,金沢市鳴和2-10-60,,,,,,,,
2202,金沢市,36.585147,136.629128,福祉・健康,AED,,,,,長田中学校（AED）,２Ｆ　職員室前,920-0067,金沢市二宮町1-1,,,,,,,,
2203,金沢市,36.602628,136.649032,福祉・健康,AED,,,,,浅野川中学校（AED）,"１Ｆ　保健室内
３Ｆ　職員室前廊下",920-0014,金沢市諸江下丁388,,,,,,,,
2205,金沢市,36.600186,136.597081,福祉・健康,AED,,,,,金石中学校（AED）,３Ｆ　職員室内,920-0335,金沢市金石東1-13-1,,,,,,,,
2206,金沢市,36.552698,136.606179,福祉・健康,AED,,,,,西南部中学校（AED）,２Ｆ　職員室内,921-8062,金沢市新保本1-149,,,,,,,,
2207,金沢市,36.514534,136.700242,福祉・健康,AED,,,,,犀生中学校（AED）,２Ｆ　職員室・事務室間の廊下,920-1302,金沢市末町10-4,,,,,,,,
2208,金沢市,36.615833,136.691603,福祉・健康,AED,,,,,森本中学校（AED）,２Ｆ　保健室前,920-3115,金沢市弥勒町ヨ22,,,,,,,,
2209,金沢市,36.511353,136.62332,福祉・健康,AED,,,,,額中学校（AED）,２Ｆ　職員室前廊下,921-8146,金沢市額乙丸町イ7,,,,,,,,
2210,金沢市,36.522918,136.634261,福祉・健康,AED,,,,,高尾台中学校（AED）,２Ｆ　職員室前廊下窓側,921-8155,金沢市高尾台1-128,,,,,,,,
2211,金沢市,36.570381,136.58412,福祉・健康,AED,,,,,緑中学校（AED）,１Ｆ　職員玄関入口内右側,920-0373,金沢市みどり2-3,,,,,,,,
2212,金沢市,36.609821,136.628083,福祉・健康,AED,,,,,港中学校（AED）,２Ｆ　職員室前廊下壁,920-8217,金沢市近岡町217,,,,,,,,
2213,金沢市,36.595254,136.676222,福祉・健康,AED,,,,,北鳴中学校（AED）,２Ｆ　職員室前廊下,920-0811,金沢市小坂町北95,,,,,,,,
2214,金沢市,36.590407,136.60738,福祉・健康,AED,,,,,大徳中学校（AED）,２Ｆ　廊下、職員室横の柱,920-0352,金沢市観音堂町ト35,,,,,,,,
2215,金沢市,36.547902,136.63624,福祉・健康,AED,,,,,清泉中学校（AED）,２Ｆ　職員室前　廊下,921-8042,金沢市泉本町3-3,,,,,,,,
2216,金沢市,36.556157,136.67731,福祉・健康,AED,,,,,金沢美術工芸大学（AED）,"１Ｆ　本館棟　掲示板コーナー向階段横
２ F 　体育館棟　体育館入り口横",920-0942,金沢市小立野5-11-1,,,,,,,,
2217,金沢市,36.592484,136.615654,福祉・健康,AED,,,,,金沢市立工業高校（AED）,"１Ｆ　第一実習棟機械科準備室前、
２Ｆ　第一体育館前",920-0344,金沢市畝田東1-1-1,,,,,,,,
2218,金沢市,36.607796,136.599513,福祉・健康,AED,,,,,金石保育所（AED）,１Ｆ　事務所内,920-0338,金沢市金石北3-3-38,,,,,,,,
2219,金沢市,36.560454,136.643685,福祉・健康,AED,,,,,中村町保育所（AED）,１Ｆ　玄関,921-8022,金沢市中村町15-7,,,,,,,,
2220,金沢市,36.580459,136.666932,福祉・健康,AED,,,,,森山保育所（AED）,１Ｆ　事務所内,920-0842,金沢市元町1-7-7,,,,,,,,
2221,金沢市,36.546318,136.608815,福祉・健康,AED,,,,,八日市保育所（AED）,１Ｆ　事務所内,921-8064,金沢市八日市2-465,,,,,,,,
2222,金沢市,36.554128,136.596513,福祉・健康,AED,,,,,矢木保育所（AED）,１Ｆ　事務所内,921-8066,金沢市矢木1-40,,,,,,,,
2223,金沢市,36.608728,136.706855,福祉・健康,AED,,,,,薬師谷保育所（AED）,１Ｆ　玄関,920-0164,金沢市堅田町丙86-3,,,,,,,,
2224,金沢市,36.61005,136.693334,福祉・健康,AED,,,,,双葉保育所（AED）,１Ｆ　事務所内,920-3114,金沢市吉原町ヨ1,,,,,,,,
2225,金沢市,36.638285,136.711184,福祉・健康,AED,,,,,花園保育所（AED）,１Ｆ　玄関,920-0102,金沢市岸川町に46,,,,,,,,
2226,金沢市,36.596767,136.737368,福祉・健康,AED,,,,,宮野保育所（AED）,１Ｆ　事務所内,920-0153,金沢市宮野町ホ79,,,,,,,,
2227,金沢市,36.631625,136.684942,福祉・健康,AED,,,,,八田保育所（AED）,１Ｆ　事務所内,920-3104,金沢市八田町東572,,,,,,,,
2228,金沢市,36.542452,136.634521,福祉・健康,AED,,,,,三馬保育所（AED）,１Ｆ　玄関,921-8164,金沢市久安6-83,,,,,,,,
2229,金沢市,36.51583,136.627858,福祉・健康,AED,,,,,光が丘保育所（AED）,１Ｆ　事務所内,921-8142,金沢市光が丘2-104,,,,,,,,
2230,金沢市,36.533665,136.67321,福祉・健康,AED,,,,,大桑保育所（AED）,１Ｆ　玄関,921-8046,金沢市大桑町平42-48,,,,,,,,
2231,金沢市,36.589697,136.671914,福祉・健康,AED,,,,,城北児童会館（AED）,１Ｆ　玄関,920-0811,金沢市小坂町西8-11,,,,,,,,
2232,金沢市,36.563425,136.649214,福祉・健康,AED,,,,,長町児童館（AED）,１Ｆ　玄関,920-0865,金沢市長町2-2-16,,,,,,,,
2233,金沢市,36.572038,136.64985,福祉・健康,AED,,,,,芳斉児童館（AED）,１Ｆ　廊下,920-0862,金沢市芳斉2-3-29,,,,,,,,
2234,金沢市,36.633483,136.707671,福祉・健康,AED,,,,,花園児童館（AED）,１Ｆ　玄関ホール,920-0106,金沢市今町チ41,,,,,,,,
2235,金沢市,36.576615,136.663551,福祉・健康,AED,,,,,馬場児童館（AED）,３Ｆ　廊下,920-0831,金沢市東山3-29-22,,,,,,,,
2236,金沢市,36.610865,136.602882,福祉・健康,AED,,,,,大野町児童館（AED）,１Ｆ　玄関,920-0231,金沢市大野町1-8-5,,,,,,,,
2237,金沢市,36.543242,136.666538,福祉・健康,AED,,,,,平和町児童館（AED）,１Ｆ　玄関,921-8105,金沢市平和町2-8-7,,,,,,,,
2238,金沢市,36.59487,136.612896,福祉・健康,AED,,,,,大徳児童館（AED）,１Ｆ　玄関ホール,920-0343,金沢市畝田中2-234,,,,,,,,
2239,金沢市,36.593443,136.675689,福祉・健康,AED,,,,,小坂児童館（AED）,１Ｆ　玄関,920-0811,金沢市小坂町北312,,,,,,,,
2240,金沢市,36.566961,136.667532,福祉・健康,AED,,,,,材木児童館（AED）,１Ｆ　玄関ホール,920-0921,金沢市材木町13-11,,,,,,,,
2241,金沢市,36.565938,136.620871,福祉・健康,AED,,,,,米丸児童館（AED）,１Ｆ　事務室,921-8005,金沢市間明町2-346,,,,,,,,
2242,金沢市,36.528432,136.647259,福祉・健康,AED,,,,,富樫児童館（AED）,１Ｆ　遊戯室,921-8175,金沢市山科1-6-8,,,,,,,,
2243,金沢市,36.550971,136.679032,福祉・健康,AED,,,,,小立野児童館（AED）,２Ｆ　廊下,920-0942,金沢市小立野4-7-51,,,,,,,,
2244,金沢市,36.559467,136.641945,福祉・健康,AED,,,,,中村児童館（AED）,１Ｆ　集会室,921-8022,金沢市中村町10-35,,,,,,,,
2245,金沢市,36.625577,136.627885,福祉・健康,AED,,,,,粟崎児童館（AED）,１Ｆ　玄関,920-0226,金沢市粟崎町1-3,,,,,,,,
2246,金沢市,36.60102,136.633894,福祉・健康,AED,,,,,鞍月児童館（AED）,１Ｆ　廊下,920-0064,金沢市直江町９２街区２,,,,,,,,
2247,金沢市,36.575801,136.657413,福祉・健康,AED,,,,,瓢箪児童館（AED）,２Ｆ　階段踊り場,920-0901,金沢市彦三町2-10-5,,,,,,,,
2248,金沢市,36.604305,136.594367,福祉・健康,AED,,,,,金石児童館（AED）,２Ｆ　廊下,920-0337,金沢市金石西4-5-30,,,,,,,,
2249,金沢市,36.567951,136.580264,福祉・健康,AED,,,,,安原児童館（AED）,１Ｆ　玄関,920-0376,金沢市福増町北1067,,,,,,,,
2250,金沢市,36.549385,136.644678,福祉・健康,AED,,,,,弥生児童館（AED）,２Ｆ　階段踊り場,921-8036,金沢市弥生1-29-13,,,,,,,,
2251,金沢市,36.563997,136.635623,福祉・健康,AED,,,,,新神田児童館（AED）,３Ｆ　廊下,921-8013,金沢市新神田1-1-18,,,,,,,,
2252,金沢市,36.584561,136.661357,福祉・健康,AED,,,,,浅野町児童館（AED）,１Ｆ　廊下,920-0841,金沢市浅野本町2-13-12,,,,,,,,
2253,金沢市,36.572778,136.597176,福祉・健康,AED,,,,,二塚児童館（AED）,１Ｆ　玄関,920-0367,金沢市北塚町西98,,,,,,,,
2254,金沢市,36.546093,136.60859,福祉・健康,AED,,,,,押野児童館（AED）,１Ｆ　玄関,921-8064,金沢市八日市2-464,,,,,,,,
2255,金沢市,36.606436,136.67663,福祉・健康,AED,,,,,千坂児童館（AED）,１Ｆ　玄関,920-0002,金沢市千木1-235,,,,,,,,
2256,金沢市,36.575882,136.642986,福祉・健康,AED,,,,,長田町児童館（AED）,３Ｆ　廊下,920-0043,金沢市長田1-5-50,,,,,,,,
2257,金沢市,36.522124,136.624092,福祉・健康,AED,,,,,扇台児童館（AED）,１Ｆ　玄関ホール,921-8141,金沢市馬替1-29-1,,,,,,,,
2258,金沢市,36.55722,136.686887,福祉・健康,AED,,,,,杜の里児童館（AED）,１Ｆ　遊戯室,920-1165,金沢市若松町3-281,,,,,,,,
2259,金沢市,36.554714,136.609084,福祉・健康,AED,,,,,西南部児童館（AED）,１Ｆ　玄関,921-8063,金沢市八日市出町815,,,,,,,,
2261,金沢市,36.579398,136.669017,福祉・健康,AED,,,,,森山公民館（AED）,１Ｆ　エントランス正面壁,920-0843,金沢市森山2-11-13,,,,,,,,
2262,金沢市,36.510864,136.624167,福祉・健康,AED,,,,,額公民館（AED）,１Ｆ　正面玄関フロア,921-8145,金沢市額谷3-1-1,,,,,,,,
2263,金沢市,36.553143,136.647406,福祉・健康,AED,,,,,野町公民館（AED）,１Ｆ　事務所裏通路,921-8031,金沢市野町3-1-15,,,,,,,,
2264,金沢市,36.541761,136.661158,福祉・健康,AED,,,,,城南公民館（AED）,１Ｆ　玄関ホール左側,921-8111,金沢市若草町22-12,,,,,,,,
2265,金沢市,36.555979,136.656861,福祉・健康,AED,,,,,新竪町公民館（AED）,１Ｆ　ロビー,920-0971,金沢市鱗町62,,,,,,,,
2266,金沢市,36.551374,136.659961,福祉・健康,AED,,,,,菊川町公民館（AED）,１Ｆ　玄関入って右側壁面,920-0967,金沢市菊川2-3-3,,,,,,,,
2267,金沢市,36.56648,136.665274,福祉・健康,AED,,,,,味噌蔵町公民館（AED）,１Ｆ　エントランス左前壁,920-0931,金沢市兼六元町7-19,,,,,,,,
2268,金沢市,36.569885,136.652844,福祉・健康,AED,,,,,松ヶ枝公民館（AED）,１Ｆ　玄関ホール左側壁,920-0864,金沢市高岡町7-23,,,,,,,,
2269,金沢市,36.605795,136.674127,福祉・健康,AED,,,,,千坂公民館（AED）,１Ｆ　事務室前,920-0002,金沢市千木1-119,,,,,,,,
2270,金沢市,36.590668,136.641505,福祉・健康,AED,,,,,諸江公民館（AED）,１Ｆ　玄関左斜め正面,920-0014,金沢市諸江町29-1,,,,,,,,
2271,金沢市,36.542116,136.63456,福祉・健康,AED,,,,,三馬公民館（AED）,１Ｆ　ｴﾝﾄﾗﾝｽ右側　階段横,921-8164,金沢市久安6-59-1,,,,,,,,
2272,金沢市,36.546794,136.680462,福祉・健康,AED,,,,,崎浦公民館（AED）,１Ｆ　玄関入って右側壁面,920-0942,金沢市小立野2-41-36,,,,,,,,
2273,金沢市,36.615365,136.639571,福祉・健康,AED,,,,,浅野川公民館（AED）,１Ｆ　事務室前壁,920-0213,金沢市大河端町西92-1,,,,,,,,
2274,金沢市,36.57887,136.625701,福祉・健康,AED,,,,,戸板公民館（AED）,１Ｆ　エントランス右　廊下,920-0068,金沢市戸板１丁目２番地　戸板会館かがやき（１階）,,,,,,,,
2275,金沢市,36.59234,136.609935,福祉・健康,AED,,,,,大徳公民館（AED）,１Ｆ　玄関正面,920-0342,金沢市畝田西1-201-1,,,,,,,,
2276,金沢市,36.603897,136.651954,福祉・健康,AED,,,,,松寺公民館（AED）,１Ｆ　階段下,920-0011,金沢市松寺町丑42,,,,,,,,
2277,金沢市,36.509824,136.67496,福祉・健康,AED,,,,,内川公民館（AED）,１Ｆ　玄関左側,920-1346,金沢市三小牛町20-1-10,,,,,,,,
2278,金沢市,36.525937,136.638018,福祉・健康,AED,,,,,伏見台公民館（AED）,１Ｆ　大ホール手前トイレ横,921-8151,金沢市窪5-675,,,,,,,,
2279,金沢市,36.562139,136.761959,福祉・健康,AED,,,,,医王山公民館（AED）,１Ｆ　玄関右奥,920-1102,金沢市二俣町六字14-9,,,,,,,,
2280,金沢市,36.586902,136.640583,福祉・健康,AED,,,,,西公民館（AED）,１Ｆ　玄関上がり口左,920-0024,金沢市西念2-34-9,,,,,,,,
2281,金沢市,36.55053,136.626497,福祉・健康,AED,,,,,米泉公民館（AED）,１Ｆ　玄関から台所に行く廊下右側壁,921-8044,金沢市米泉町8-126,,,,,,,,
2282,金沢市,36.576193,136.68077,福祉・健康,AED,,,,,東斎場（AED）,１Ｆ　待合ロビー,920-0815,金沢市鳴和台360番地,,,,,,,,
2283,金沢市,36.555442,136.630313,福祉・健康,AED,,,,,南斎場（AED）,１Ｆ　待合ロビー,921-8043,金沢市西泉6丁目64番地,,,,,,,,
2284,金沢市,36.533354,136.66325,福祉・健康,AED,,,,,野田山墓地管理事務所（AED）,１Ｆ　管理事務所,921-8104,金沢市野田町野田山1-2,,,,,,,,
2285,金沢市,36.563456,136.693602,福祉・健康,AED,,,,,奥卯辰山墓地公園管理事務所（AED）,１Ｆ　管理事務所,920-1165,金沢市若松町ア88,,,,,,,,
2286,金沢市,36.495242,136.671107,福祉・健康,AED,,,,,内川墓地公園管理事務所（AED）,１Ｆ　管理事務所,920-1343,金沢市小原町ム18,,,,,,,,
2287,金沢市,36.562285,136.618305,福祉・健康,AED,,,,,西部環境エネルギーセンター（AED）,１Ｆ　エントランス右側,921-8016,金沢市東力町ハ3-1,,,,,,,,
2288,金沢市,36.542207,136.735954,福祉・健康,AED,,,,,戸室リサイクルプラザ（AED）,１Ｆ　エントランス左側壁,920-1105,金沢市戸室新保ハ604,,,,,,,,
2289,金沢市,36.558386,136.630837,福祉・健康,AED,,,,,西部リサイクルプラザ（AED）,１Ｆ　エントランス右側壁,921-8026,金沢市糸田新町1-30,,,,,,,,
2290,金沢市,36.577821,136.677789,福祉・健康,AED,,,,,東部リサイクルプラザ（AED）,１Ｆ　エントランス正面,920-0815,金沢市鳴和台432,,,,,,,,
2291,金沢市,36.561385,136.656248,福祉・健康,AED,,,,,市役所本庁舎（AED）,"１Ｆ　市民課交付窓口前
２F　市民ホール",920-0962,金沢市広坂1-1-1,,,,,,,,
2292,金沢市,36.55909,136.660163,福祉・健康,AED,,,,,金沢市職員会館（AED）,１Ｆ　受付側,920-0964,金沢市本多町3-2-26,,,,,,,,
2293,金沢市,36.583175,136.646533,福祉・健康,AED,,,,,金沢勤労者プラザ（AED）,１Ｆ　事務所受付,920-0022,金沢市北安江3-2-20,,,,,,,,
2295,金沢市,36.57255,136.574134,福祉・健康,AED,,,,,金沢市農業センター（AED）,１Ｆ　管理棟エントランスホール内,920-0371,金沢市下安原町東1471,,,,,,,,
2296,金沢市,36.585838,136.632461,福祉・健康,AED,,,,,中央卸売市場（AED）,"青果本館卸売場　蔬菜現場事務所前、
水産本館卸売場　石川中央魚市日直室前、
管理事務所1階　警備員室前、
青果第三卸売場　事務室前、
水産冷蔵庫　冷蔵庫扉前",920-0024,金沢市西念4-7-1,,,,,,,,
2297,金沢市,36.580025,136.633792,福祉・健康,AED,,,,,公設花き地方卸売市場（AED）,１Ｆ　正面側トイレ入口左側壁,920-0051,金沢市二口町ニ80-1,,,,,,,,
2298,金沢市,36.617454,136.694255,福祉・健康,AED,,,,,森本市民センター（AED）,１Ｆ　待合場所ソファー付近,920-3116,金沢市南森本町ヌ33,,,,,,,,
2299,金沢市,36.51694,136.688121,福祉・健康,AED,,,,,犀川市民センター（AED）,１Ｆ　公民館側自動ドア横,920-1302,金沢市末町6-67-1,,,,,,,,
2300,金沢市,36.545416,136.692067,福祉・健康,AED,,,,,浅川市民センター（AED）,１Ｆ　ホールエレベーター横,920-1151,金沢市田上町14街区4,,,,,,,,
2301,金沢市,36.619262,136.630049,福祉・健康,AED,,,,,湊市民センター（AED）,１Ｆ　受付窓口の付近,920-0211,金沢市湊3-5-9,,,,,,,,
2302,金沢市,36.571488,136.655877,福祉・健康,AED,,,,,近江町交流プラザ（AED）,３Ｆ　通路トイレ付近,920-0907,金沢市青草町88,,,,,,,,
2303,金沢市,36.54075,136.6626,福祉・健康,AED,,,,,金沢市立病院（AED）,"１Ｆ　待合ホール　
院外処方せん受付窓口横",921-8105,金沢市平和町3-7-3,,,,,,,,
2304,金沢市,36.581697,136.644302,福祉・健康,AED,,,,,企業局広岡庁舎（AED）,１Ｆ　玄関ホール,920-0031,金沢市広岡3-3-30,,,,,,,,
2305,金沢市,36.568963,136.632323,福祉・健康,AED,,,,,消防訓練場（AED）,２Ｆ　総合作戦会議室右側,921-8012,金沢市本江町538,,,,,,,,
2306,金沢市,36.554989,136.634773,福祉・健康,AED,,,,,中央消防署（AED）,２Ｆ　事務室奥,921-8042,金沢市泉本町7-9-2,,,,,,,,
2307,金沢市,36.522854,136.627256,福祉・健康,AED,,,,,高尾台出張所（AED）,２Ｆ　事務室奥,921-8155,金沢市高尾台4-63,,,,,,,,
2308,金沢市,36.566805,136.664091,福祉・健康,AED,,,,,味噌蔵出張所（AED）,１Ｆ　事務室右側,920-0931,金沢市兼六元町3-18,,,,,,,,
2309,金沢市,36.539181,136.651851,福祉・健康,AED,,,,,泉野出張所（AED）,１Ｆ　通信室,921-8116,金沢市泉野出町2-1-7,,,,,,,,
2310,金沢市,36.547102,136.680176,福祉・健康,AED,,,,,小立野出張所（AED）,１Ｆ　事務室入口,920-0942,金沢市小立野2-41-40,,,,,,,,
2311,金沢市,36.581572,136.639686,福祉・健康,AED,,,,,駅西消防署（AED）,１Ｆ　通信室,920-0025,金沢市駅西本町1-11-29,,,,,,,,
2312,金沢市,36.572196,136.651161,福祉・健康,AED,,,,,玉川出張所（AED）,２Ｆ　通信室,920-0863,金沢市玉川町9-11,,,,,,,,
2313,金沢市,36.592669,136.670973,福祉・健康,AED,,,,,小坂出張所（AED）,１Ｆ　事務室奥,920-0806,金沢市三池町197-55,,,,,,,,
2314,金沢市,36.617557,136.694211,福祉・健康,AED,,,,,森本出張所（AED）,２Ｆ　事務室奥,929-1327,金沢市南森本町ヌ33,,,,,,,,
2315,金沢市,36.598603,136.599314,福祉・健康,AED,,,,,金石消防署（AED）,２Ｆ　事務室右側,920-0335,金沢市金石東1-3-3,,,,,,,,
2316,金沢市,36.558508,136.596396,福祉・健康,AED,,,,,三和出張所（AED）,２Ｆ　事務室右側,921-8066,金沢市矢木3-105-1,,,,,,,,
2317,金沢市,36.616614,136.612514,福祉・健康,AED,,,,,臨港出張所（AED）,２Ｆ　事務室右側,920-0231,金沢市大野町4-ソ16,,,,,,,,
2318,金沢市,36.561506,136.630236,福祉・健康,AED,,,,,神田交通公園（AED）,１Ｆ　事務所内,921-8013,金沢市新神田3-7-1,,,,,,,,
2319,金沢市,36.57915,136.64701,福祉・健康,AED,,,,,金沢駅西広場（AED）,１Ｆ　管理棟内,920-0031,金沢市広岡1丁目802番地,,,,,,,,
2320,金沢市,36.632172,136.664171,福祉・健康,AED,,,,,こなん水辺公園管理学習棟（AED）,１Ｆ　管理学習棟おえの間,920-0209,金沢市東蚊爪町マ33-1,,,,,,,,
2321,金沢市,36.530373,136.654397,福祉・健康,AED,,,,,大乗寺丘陵公園見晴らしハウス（AED）,１Ｆ　見晴らしハウス入口,921-8114,金沢市長坂町・山科町地内,,,,,,,,
2322,金沢市,36.576197,136.648126,福祉・健康,AED,,,,,金沢駅東駐車場（AED）,１Ｆ　管理事務所前,920-0856,金沢市昭和町16-2,,,,,,,,
2323,金沢市,36.575792,136.652316,福祉・健康,AED,,,,,武蔵地下駐車場（AED）,B１Ｆ　管理事務所前,920-0853,金沢市本町1-170,,,,,,,,
2324,金沢市,36.621487,136.672085,福祉・健康,AED,,,,,瑞樹会館（AED）,"１Ｆ　エントランス右側
玄関前",920-0201,金沢市みずき2-263,,,,,,,,
2325,金沢市,36.577808,136.649301,福祉・健康,AED,,,,,金沢駅東広場（AED）,B１Ｆ　中央監視室,920-0858,金沢市木ノ新保町2番地,,,,,,,,
2327,金沢市,36.622257,136.631797,福祉・健康,AED,,,,,港エネルギーセンター（AED）,１Ｆ　玄関ホール,920-0211,金沢市湊3-6,,,,,,,,
2328,金沢市,36.512439,136.699335,福祉・健康,AED,,,,,末浄水場（AED）,１Ｆ　正面入口左側壁,920-1302,金沢市末町1-1,,,,,,,,
2329,金沢市,36.586858,136.653785,福祉・健康,AED,,,,,城北水質管理センター（AED）,１Ｆ　玄関ホール,920-0841,金沢市浅野本町ホ131,,,,,,,,
2344,金沢市,36.561063,136.651996,福祉・健康,AED,,,,,金沢学生のまち市民交流館（ＡＥＤ）,１Ｆ　学生の家玄関,920-0981,金沢市片町２丁目５?１７,,,,,,,,
2345,金沢市,36.570577,136.645378,福祉・健康,AED,,,,,女性センター（ＡＥＤ）,１Ｆ　財団事務所カウンター,920-0861,金沢市三社町1-44,,,,,,,,
2346,金沢市,36.558822,136.631121,福祉・健康,AED,,,,,西部管理センター（ＡＥＤ）,１Ｆ　事務室,921-8026,金沢市糸田新町1-30,,,,,,,,
2347,金沢市,36.576124,136.679767,福祉・健康,AED,,,,,東部管理センター（ＡＥＤ）,１Ｆ　事務室,920-0815,金沢市鳴和台359,,,,,,,,
2349,金沢市,36.565138,136.618266,福祉・健康,AED,,,,,米丸公民館（ＡＥＤ）,"１Ｆ　玄関ホール
展示棚内",921-8005,金沢市間明町2-72,,,,,,,,
2350,金沢市,36.566611,136.645581,福祉・健康,AED,,,,,長土塀公民館（ＡＥＤ）,"３Ｆ　第１研修室
入って正面壁面",920-0865,金沢市長町3-3-3,,,,,,,,
2736,金沢市,36.553753,136.593355,福祉・健康,AED,,,,,三和児童館,１F　玄関,921-8065,金沢市上荒屋4丁目82番地,076-249-2908,,,,,,,
2737,金沢市,36.492142,136.750124,福祉・健康,AED,,,,,湯涌公民館,,920-1129,金沢市芝原町イ59番地,076-235-1852,,,,,,,
2738,金沢市,36.517922,136.742947,福祉・健康,AED,,,,,キゴ山少年自然の家,,920-1141,金沢市平等本町13-1,076-229-1141,,,8：30～17：15（宿泊団体がある場合はこの限りではない）,毎週月曜日（祝日の場合その翌日）　年末年始（１２月２９日から１月３日まで）,,,
3777,金沢市,36.538097,140.636868,福祉・健康,AED,,,,,金沢町家情報館,AED,,金沢市茨城町53,,,,,,,,
3778,金沢市,36.539958,136.650198,福祉・健康,AED,,,,,総合体育館,AED,,泉野出町3-8-1,,,,,,,,
3781,金沢市,36.597893,136.660123,福祉・健康,AED,,,,,金沢プール,AED,,磯部町ハ55,,,,,,,,
3784,金沢市,36.582068,136.641756,福祉・健康,AED,,,,,ガスショールーム,AED,,西念1-2-1,,,,,,,,
3785,金沢市,36.577318,136.648544,福祉・健康,AED,,,,,金沢駅東広場,AED,,木ノ新保町2,,,,,,,,
3786,金沢市,36.551374,136.659961,福祉・健康,AED,,,,,菊川町公民館,AED,,菊川町2-3-3,,,,,,,,
3787,金沢市,36.565138,136.618266,福祉・健康,AED,,,,,米丸公民館,AED,,間明町2-72,,,,,,,,
3788,金沢市,36.566611,136.645581,福祉・健康,AED,,,,,長土塀公民館,AED,,長町3-3-3,,,,,,,,
3789,金沢市,36.565889,136.666004,福祉・健康,AED,,,,,兼六小学校,AED,,兼六元町7-15,,,,,,,,
3790,金沢市,36.591926,136.637444,福祉・健康,AED,,,,,金沢市西町教育研修館,AED,,金沢市西町3-16,,,,,,,,
3791,金沢市,36.593443,136.675689,福祉・健康,AED,,,,,小坂公民館,AED,,金沢市小坂町北312,,,,,,,,
3792,金沢市,36.492142,136.750124,福祉・健康,AED,,,,,湯涌公民館,AED,,芝原町イ59,,,,,,,,
3793,金沢市,36.557282,136.656567,福祉・健康,AED,,,,,金澤町家情報館,"1F
通庭左、下駄箱上",,茨木町53,,,,,,,,
3794,金沢市,36.597893,136.660123,福祉・健康,AED,,,,,金沢プール,"1F
受付窓口付近",,磯部町ハ55,,,,,,,,
3795,金沢市,36.553753,136.593355,福祉・健康,AED,,,,,三和児童館,1F　玄関,,上荒屋4-82,,,,,,,,
3796,金沢市,36.565889,136.666004,福祉・健康,AED,,,,,兼六小学校,"2F　体育館内校舎側入り口の右側
",,兼六元町7-15,,,,,,,,
3797,金沢市,36.593443,136.675689,福祉・健康,AED,,,,,小坂公民館,1F　エントランス正面壁,,小坂町北312,,,,,,,,
3798,金沢市,36.492142,136.750124,福祉・健康,AED,,,,,湯涌公民館,1F　ホール内,,芝原町イ59,,,,,,,,
3799,金沢市,36.594682,136.625573,福祉・健康,AED,,,,,キゴ山ふれあい研修センター　こども交流棟,1F　管理棟事務室,,平等本町カ13-1,,,,,,,,
3800,金沢市,36.582083,136.641777,福祉・健康,AED,,,,,ガスショールーム,1F 正面入口右側壁,,金沢市西念1-2-1,,,,,,,,
